City,Lat,Lng,Max Temp,Humidity,Cloudiness,Wind Speed,Country,Date
Punta Arenas,-53.15,-70.92,41.0,86,90,14.99,CL,1603022154
Mataura,-46.19,168.86,50.0,77,100,3.0,NZ,1603022154
Nikolskoye,59.7,30.79,39.2,70,90,8.95,RU,1603022154
Butaritari,3.07,172.79,81.34,78,60,18.95,KI,1603022155
Albany,42.6,-73.97,35.01,100,20,3.4,US,1603022107
Hirara,24.8,125.28,75.2,83,75,17.22,JP,1603022155
Saskylakh,71.92,114.08,13.37,96,88,3.67,RU,1603022155
Khatanga,71.97,102.5,8.11,87,7,9.19,RU,1603022155
Bengkulu,-3.8,102.27,78.76,81,22,3.22,ID,1603022155
George Town,5.41,100.34,86.0,74,20,3.36,MY,1603022155
Tuktoyaktuk,69.45,-133.04,12.7,90,0,6.26,CA,1603022155
Bredasdorp,-34.53,20.04,69.8,49,99,8.05,ZA,1603022155
Nabire,-3.37,135.48,76.28,88,100,3.18,ID,1603022155
Codrington,-38.27,141.97,47.21,91,9,6.91,AU,1603022155
Vaini,-21.2,-175.2,69.8,88,40,8.05,TO,1603022155
Ushuaia,-54.8,-68.3,41.0,86,20,3.44,AR,1603022155
Atuona,-9.8,-139.03,77.16,79,3,17.96,PF,1603022156
Busselton,-33.65,115.33,68.0,43,20,15.61,AU,1603021977
Nizwá,22.93,57.53,92.66,11,0,8.08,OM,1603022156
Lebu,-37.62,-73.65,50.47,88,8,2.35,CL,1603022156
Mount Gambier,-37.83,140.77,50.0,93,75,5.82,AU,1603022156
Pevek,69.7,170.31,24.6,94,24,17.6,RU,1603022156
Bluff,-46.6,168.33,50.0,77,100,3.0,NZ,1603022156
Dikson,73.51,80.55,21.51,92,0,27.76,RU,1603022156
Ancud,-41.87,-73.82,48.99,93,75,10.29,CL,1603022156
Hamilton,39.18,-84.53,52.0,61,90,4.7,US,1603022040
Chara,56.91,118.26,17.24,92,76,0.96,RU,1603022156
San Cristobal,7.77,-72.22,78.8,65,75,9.17,VE,1603021901
Castro,-24.79,-50.01,60.03,82,95,8.52,BR,1603022025
Necochea,-38.55,-58.74,71.01,79,48,5.99,AR,1603022157
Marzuq,14.4,46.47,83.84,14,0,10.85,YE,1603022157
Mahajanga,-15.72,46.32,91.4,38,20,13.87,MG,1603022157
Yellowknife,62.46,-114.35,23.0,92,90,8.05,CA,1603022157
Rikitea,-23.12,-134.97,73.98,82,96,20.11,PF,1603022157
Tonantins,-2.87,-67.8,75.52,94,92,2.28,BR,1603022157
Ponta do Sol,32.67,-17.1,69.8,94,75,20.8,PT,1603022157
Toktogul,41.87,72.94,35.01,90,0,0.76,KG,1603022157
Mar del Plata,-38.0,-57.56,62.6,88,24,11.41,AR,1603022157
Arrondissement de Lannion,48.75,-3.42,57.2,62,94,9.17,FR,1603022157
Saint-François,46.42,3.91,53.6,62,40,3.36,FR,1603022157
Kandi,11.13,2.94,97.54,38,87,2.57,BJ,1603022157
Yamethin,20.43,96.15,77.92,78,66,2.24,MM,1603022158
Jamestown,42.1,-79.24,46.99,52,1,13.87,US,1603022158
Kibre Mengist,5.88,38.98,67.59,86,72,4.47,ET,1603022158
Cairns,-16.92,145.77,73.0,78,26,2.24,AU,1603021887
Jermuk,39.84,45.67,60.4,31,0,5.46,AM,1603022158
Berdigestyakh,62.1,126.7,12.02,96,91,4.7,RU,1603022158
Naryan-Mar,67.67,53.09,31.06,94,3,5.57,RU,1603022158
Henties Bay,-22.12,14.28,63.0,82,3,5.01,NA,1603022158
Leningradskiy,69.38,178.42,21.31,88,0,8.37,RU,1603022158
Padang,-0.95,100.35,80.71,72,78,0.63,ID,1603022158
Maniitsoq,65.42,-52.9,42.96,74,100,17.81,GL,1603022158
Ozernovskiy,51.5,156.52,46.9,79,100,17.4,RU,1603022158
Thompson,55.74,-97.86,23.0,100,90,4.7,CA,1603021880
Poum,-20.23,164.02,73.47,73,38,13.33,NC,1603022158
Avarua,-21.21,-159.78,71.6,83,93,8.05,CK,1603022158
Orán,-23.13,-64.33,81.0,63,0,1.01,AR,1603022158
Paamiut,61.99,-49.67,41.38,81,78,17.52,GL,1603022159
Vardø,70.37,31.11,32.0,70,75,16.11,NO,1603022159
Hermanus,-34.42,19.23,66.99,67,83,4.0,ZA,1603022159
Xiaolingwei,32.03,118.85,64.0,72,100,4.47,CN,1603022159
Hobart,-42.88,147.33,53.6,62,75,11.41,AU,1603022120
Colchester,51.89,0.9,52.0,81,90,8.05,GB,1603022159
Cabo San Lucas,22.89,-109.91,77.0,90,7,1.99,MX,1603022159
Bethel,41.37,-73.41,41.0,67,90,3.29,US,1603022145
Torbay,47.67,-52.73,51.01,100,90,17.22,CA,1603022159
Banfora,10.63,-4.77,88.27,57,100,5.3,BF,1603022159
Tinskoy,56.15,96.92,48.24,70,100,7.72,RU,1603022159
Tyrma,50.08,132.17,25.54,85,2,3.49,RU,1603022159
Barrow,71.29,-156.79,19.4,73,1,17.22,US,1603022145
Te Anau,-45.42,167.72,45.19,89,100,1.68,NZ,1603022160
Vestmannaeyjar,63.44,-20.27,44.6,93,75,17.22,IS,1603022160
Sitka,57.05,-135.33,42.8,60,90,5.82,US,1603022160
Carnarvon,-24.87,113.63,71.6,78,90,19.46,AU,1603022160
Alofi,-19.06,-169.92,78.8,94,75,8.05,NU,1603022160
Isetskoye,56.49,65.32,36.93,78,18,6.73,RU,1603022160
Laguna,38.42,-121.42,62.01,54,1,1.83,US,1603022160
Cayenne,4.93,-52.33,84.2,79,52,3.36,GF,1603022160
Talara,-4.58,-81.27,66.34,76,55,13.67,PE,1603022160
Miles City,46.41,-105.84,24.8,73,40,4.7,US,1603022161
Meghraj,23.5,73.5,91.09,51,55,5.79,IN,1603022161
Sept-Îles,50.2,-66.38,39.99,73,5,3.36,CA,1603022161
Igbon,11.21,123.17,81.46,81,75,12.95,PH,1603022161
Datong,40.09,113.29,50.0,40,0,3.38,CN,1603022161
Banjar,-8.19,114.97,82.4,74,40,6.93,ID,1603022161
Huarmey,-10.07,-78.15,62.56,84,93,4.92,PE,1603022161
Mahébourg,-20.41,57.7,80.6,57,20,10.29,MU,1603022161
Saint Anthony,45.02,-93.22,32.0,68,1,6.93,US,1603022161
Tasiilaq,65.61,-37.64,50.0,27,75,9.17,GL,1603022161
Ratnagiri,16.98,73.3,81.23,79,17,6.55,IN,1603022161
Eureka,40.8,-124.16,46.4,100,1,6.06,US,1603022161
New Norfolk,-42.78,147.06,52.0,76,84,2.77,AU,1603022162
Airai,-8.93,125.41,63.03,100,74,0.31,TL,1603022162
San Juan,-31.54,-68.54,82.24,26,0,9.51,AR,1603022162
Vao,-22.67,167.48,71.1,79,15,18.68,NC,1603022162
Front Royal,38.92,-78.19,37.0,82,1,2.73,US,1603021961
Whyalla,-33.03,137.58,57.2,71,0,17.22,AU,1603022162
Wawa,9.9,4.42,89.8,54,43,4.76,NG,1603022162
Puerto Ayora,-0.74,-90.35,69.01,91,100,5.99,EC,1603022162
Port Alfred,-33.59,26.89,68.43,64,76,20.67,ZA,1603022162
Cherskiy,68.75,161.3,20.23,92,71,9.8,RU,1603022162
Durban,-29.86,31.03,75.99,73,40,8.05,ZA,1603021978
Hay River,60.82,-115.8,26.6,73,75,9.17,CA,1603022162
Kapaa,22.08,-159.32,73.4,100,20,3.36,US,1603021983
Beringovskiy,63.05,179.32,35.85,81,100,4.92,RU,1603022163
İskilip,40.74,34.47,74.62,28,99,8.95,TR,1603022163
Kaitangata,-46.28,169.85,48.99,89,99,1.99,NZ,1603022163
Shimoda,34.67,138.95,55.99,75,22,1.01,JP,1603022163
Prince Rupert,54.32,-130.32,42.8,87,90,4.7,CA,1603022034
Chui,-33.7,-53.46,66.65,82,35,7.05,UY,1603022163
East London,-33.02,27.91,68.0,60,52,24.16,ZA,1603022163
Saint George,37.1,-113.58,55.4,20,1,1.34,US,1603021999
Upernavik,72.79,-56.15,34.84,92,98,11.39,GL,1603022163
Anking,30.51,117.05,63.64,73,100,7.85,CN,1603022163
Poronaysk,49.22,143.12,39.56,70,34,12.64,RU,1603022163
Challapata,-18.9,-66.77,48.58,54,95,1.57,BO,1603022163
Lüderitz,-26.65,15.16,75.81,39,7,24.52,NA,1603022164
Mkushi,-13.62,29.39,87.75,20,61,10.2,ZM,1603022164
High Level,58.52,-117.14,23.0,79,90,2.24,CA,1603022164
Salinas,36.68,-121.66,57.2,71,1,3.36,US,1603022099
Roald,62.58,6.13,41.0,80,75,19.46,NO,1603022164
Rincon,32.3,-81.24,57.2,82,1,10.29,US,1603022101
Birjand,32.87,59.22,77.0,3,0,7.2,IR,1603022164
Sungai Penuh,-2.08,101.38,67.69,96,100,1.9,ID,1603022153
Saint-Philippe,-21.36,55.77,80.6,57,20,17.22,RE,1603022164
Dunedin,-45.87,170.5,48.99,89,100,1.99,NZ,1603022164
Strezhevoy,60.73,77.59,28.4,68,20,13.42,RU,1603022164
Omsukchan,62.53,155.8,20.7,90,83,5.61,RU,1603022164
Homer,59.64,-151.55,42.01,86,90,4.7,US,1603022165
Jieshi,22.81,115.83,78.01,72,55,1.01,CN,1603022165
Hithadhoo,-0.6,73.08,83.59,78,83,19.55,MV,1603022165
College,64.86,-147.8,21.0,66,75,3.36,US,1603022165
Geraldton,-28.77,114.6,68.0,77,75,4.7,AU,1603022165
Kumul,42.8,93.45,53.76,34,21,7.38,CN,1603022165
Qaanaaq,77.48,-69.36,35.04,83,97,9.33,GL,1603022165
Cockburn Town,21.46,-71.14,82.11,80,64,17.36,TC,1603022165
Port Elizabeth,-33.92,25.57,68.0,56,99,23.04,ZA,1603022100
Atlantic City,39.36,-74.42,59.0,86,1,8.55,US,1603022165
Pemangkat,1.17,108.97,82.22,74,81,4.38,ID,1603022165
Masindi,1.67,31.71,75.11,84,91,3.15,UG,1603022165
Fairbanks,64.84,-147.72,21.0,66,75,3.36,US,1603022165
Bathsheba,13.22,-59.52,80.6,83,20,3.36,BB,1603022165
Anajatuba,-3.26,-44.62,87.42,58,94,7.05,BR,1603022166
Dauriya,49.93,116.87,41.58,67,94,8.88,RU,1603022166
Haapiti,-17.57,-149.87,75.2,88,20,4.7,PF,1603022166
Tuban,-6.9,112.06,79.38,73,100,6.35,ID,1603022166
Waddān,29.16,16.14,86.18,32,90,3.94,LY,1603022166
Bubaque,11.28,-15.83,82.35,82,43,9.64,GW,1603022166
Klaksvík,62.23,-6.59,39.2,86,90,9.17,FO,1603022166
Vaxjo,56.88,14.81,46.4,52,21,12.75,SE,1603022166
Honningsvåg,70.98,25.97,40.17,75,100,11.39,NO,1603022166
Norman Wells,65.28,-126.83,8.6,92,20,6.93,CA,1603022166
Marsaxlokk,35.84,14.54,71.6,46,20,14.99,MT,1603022166
Korla,41.76,86.15,53.01,48,73,5.01,CN,1603022166
Luganville,-15.53,167.17,76.5,78,17,9.84,VU,1603022166
Nome,64.5,-165.41,37.4,86,90,3.36,US,1603022166
Sakakah,29.97,40.21,91.4,9,0,4.7,SA,1603022167
Dingle,11.0,122.67,77.86,87,87,5.35,PH,1603022167
Dawlatabad,36.41,64.91,75.13,19,0,12.71,AF,1603022167
Nanortalik,60.14,-45.24,40.12,90,98,5.57,GL,1603022167
Dogondoutchi,13.64,4.03,97.02,29,2,1.63,NE,1603022167
Nador,35.17,-2.93,71.6,64,20,9.17,MA,1603022167
Ha Tinh,18.33,105.9,70.75,95,100,14.92,VN,1603022167
Abay,49.63,72.85,41.0,48,14,11.18,KZ,1603022167
Laas,46.62,10.7,60.01,52,20,5.82,IT,1603022167
Udachny,66.42,112.4,6.8,92,0,4.47,RU,1603022167
Winslow,35.02,-110.7,44.6,30,1,6.93,US,1603022167
Savannah Bight,16.45,-85.85,81.9,73,99,6.69,HN,1603022167
La Reforma,25.08,-108.05,80.01,91,34,2.73,MX,1603022168
Gunjur,13.2,-16.73,89.6,75,75,4.7,GM,1603022168
Kahului,20.89,-156.47,75.2,78,75,4.23,US,1603022168
Yuncheng,35.02,110.99,59.58,40,60,2.68,CN,1603022168
Iki-Burul,45.82,44.65,77.0,31,0,8.95,RU,1603022168
Lufilufi,-13.87,-171.6,77.0,100,20,4.7,WS,1603022168
Gouré,13.98,10.27,100.99,12,0,5.99,NE,1603022168
Novyy Urgal,51.07,132.56,25.47,83,0,5.08,RU,1603022168
Kishtwār,33.32,75.77,65.43,28,0,4.38,IN,1603022168
Faanui,-16.48,-151.75,78.69,81,10,7.34,PF,1603022168
Arraial do Cabo,-22.97,-42.03,73.4,78,40,5.82,BR,1603022168
Umm Hājar,13.3,19.7,100.89,9,3,9.6,TD,1603022168
Yueyang,29.33,113.09,56.86,78,100,1.32,CN,1603022168
Auki,-8.77,160.7,79.0,81,93,4.09,SB,1603022169
San Patricio,28.02,-97.52,75.0,94,20,5.82,US,1603022169
Philadelphia,39.95,-75.16,42.8,81,75,3.36,US,1603022169
Deep River,46.1,-77.5,48.0,81,75,4.7,CA,1603022169
Hurghada,27.26,33.81,85.62,52,0,12.46,EG,1603021872
Vizinga,61.07,50.1,34.74,86,97,8.3,RU,1603022169
Neuquén,-38.95,-68.06,55.4,58,0,2.24,AR,1603022169
Richards Bay,-28.78,32.04,88.23,48,0,12.86,ZA,1603022169
Esperance,-33.87,121.9,60.8,77,84,13.87,AU,1603022169
Samarai,-10.62,150.67,79.52,88,95,10.78,PG,1603022169
Brainerd,46.36,-94.2,24.8,68,1,11.41,US,1603022169
Agirish,61.92,63.02,31.44,89,0,7.16,RU,1603022170
Piojó,10.75,-75.11,78.8,100,20,2.24,CO,1603022170
Ulagan,50.63,87.96,39.81,68,100,2.24,RU,1603022170
Xining,36.62,101.77,42.1,59,0,4.36,CN,1603022170
Narsaq,60.92,-46.05,33.8,80,75,2.24,GL,1603022170
Xaçmaz,41.46,48.81,75.25,35,0,6.51,AZ,1603022170
Nicoya,10.15,-85.45,73.63,90,89,2.08,CR,1603022170
Kavaratti,10.57,72.64,81.64,74,6,9.51,IN,1603022170
Haines Junction,60.75,-137.51,18.36,80,80,0.83,CA,1603022170
Zaria,11.11,7.72,92.59,28,0,10.96,NG,1603022170
Nhulunbuy,-12.23,136.77,78.8,78,99,8.05,AU,1603022117
Clyde River,70.47,-68.59,30.2,80,1,12.75,CA,1603022171
Mianyang,31.46,104.75,57.78,83,64,4.34,CN,1603022171
Platonovka,52.71,41.95,62.38,54,74,16.17,RU,1603022171
San Jose,37.34,-121.89,71.01,42,1,2.8,US,1603022043
Lavrentiya,65.58,-171.0,35.91,89,68,3.51,RU,1603022171
Novomykolayivka,47.98,35.91,62.6,55,0,6.71,UA,1603022171
Cape Town,-33.93,18.42,69.01,52,40,11.41,ZA,1603022171
Owando,-0.48,15.9,81.28,85,77,4.38,CG,1603022171
Slave Lake,55.28,-114.77,17.6,72,90,4.7,CA,1603022171
Hambantota,6.12,81.12,91.4,55,20,17.22,LK,1603022171
Mabaruma,8.2,-59.78,81.14,78,100,3.2,GY,1603022171
Lázaro Cárdenas,17.96,-102.2,76.73,86,85,3.62,MX,1603022171
Uruçuca,-14.59,-39.28,77.34,68,90,5.7,BR,1603022171
Yulara,-25.24,130.99,68.0,94,40,8.05,AU,1603022171
Río Gallegos,-51.62,-69.22,37.4,86,85,2.24,AR,1603021972
Dakar,14.69,-17.44,89.6,66,20,5.82,SN,1603022071
Kloulklubed,7.04,134.26,82.4,78,90,9.17,PW,1603022172
Iquitos,-3.75,-73.25,74.37,93,97,1.07,PE,1603022066
Saint Paul Harbor,57.79,-152.41,37.4,86,75,9.4,US,1603022026
Amilly,47.97,2.77,61.0,84,6,2.13,FR,1603022172
Dali,25.7,100.18,60.17,85,65,3.6,CN,1603022172
Hilo,19.73,-155.09,73.4,78,75,4.7,US,1603021962
Jiaojiang,28.68,121.44,64.99,95,100,6.55,CN,1603022172
Inongo,-1.95,18.27,80.8,68,72,1.48,CD,1603022172
Tautira,-17.73,-149.15,75.2,88,20,4.7,PF,1603022172
Pochutla,15.74,-96.47,73.99,88,24,3.18,MX,1603022172
Sonqor,34.78,47.6,80.6,15,0,4.7,IR,1603022172
Virginia Beach,36.85,-75.98,62.01,63,40,9.17,US,1603022103
Bambous Virieux,-20.34,57.76,80.6,57,20,10.29,MU,1603022173
Evensk,61.95,159.23,33.85,86,99,8.41,RU,1603022173
Grand Gaube,-20.01,57.66,79.0,58,1,10.0,MU,1603022173
Sola,-13.88,167.55,79.7,77,0,17.92,VU,1603022173
Lagoa Santa,-19.63,-43.89,64.4,77,40,11.41,BR,1603022173
Ubari,26.59,12.78,99.16,8,60,13.96,LY,1603022173
Salta,-24.79,-65.41,62.6,77,0,2.24,AR,1603022164
La Ronge,55.1,-105.28,23.0,85,90,11.41,CA,1603022173
Tabou,4.42,-7.35,79.84,86,73,9.55,CI,1603022173
Curuguaty,-24.47,-55.69,77.0,57,96,7.99,PY,1603022173
Port Lincoln,-34.73,135.87,52.48,74,0,9.01,AU,1603022173
São Filipe,14.9,-24.5,81.37,76,36,3.51,CV,1603022173
Haverfordwest,51.8,-4.97,55.0,76,34,6.93,GB,1603022173
Itapirapuã,-15.82,-50.61,85.75,42,80,6.87,BR,1603022173
Mapimí,25.82,-103.85,68.0,45,5,1.81,MX,1603022173
Chernyshevskiy,63.01,112.47,18.14,97,23,4.63,RU,1603022173
Monrovia,6.3,-10.8,77.0,88,75,4.29,LR,1603022174
Whitecourt,54.15,-115.69,13.48,86,4,1.45,CA,1603022174
Cuiluan,47.72,128.65,29.7,85,0,4.76,CN,1603022174
Cromwell,41.6,-72.65,36.0,60,20,2.66,US,1603022174
Lorengau,-2.02,147.27,82.42,79,75,8.52,PG,1603022174
Malanje,-9.54,16.34,75.2,83,13,6.93,AO,1603022174
Sawākin,19.11,37.33,92.34,46,2,10.22,SD,1603022174
Camacha,33.08,-16.33,69.8,83,75,19.46,PT,1603022174
Coyhaique,-45.58,-72.07,42.8,75,90,8.05,CL,1603022174
Lagoa,39.05,-27.98,61.7,65,87,17.29,PT,1603022174
Mujiayingzi,42.12,118.78,48.88,47,13,6.02,CN,1603022174
Ouahigouya,13.58,-2.42,96.15,29,42,4.23,BF,1603022174
Nioro,13.35,-15.75,91.9,54,57,5.06,GM,1603022175
Souillac,-20.52,57.52,80.6,57,20,10.29,MU,1603021923
Itaituba,-4.28,-55.98,81.19,73,75,3.13,BR,1603022175
Praia da Vitória,38.73,-27.07,59.0,82,75,11.03,PT,1603022175
Sapouy,11.55,-1.77,96.03,36,0,4.52,BF,1603022175
Ambanja,-13.68,48.45,87.8,60,20,9.17,MG,1603022175
Kokhma,56.93,41.09,46.67,96,100,7.74,RU,1603022175
Tateyama,34.98,139.87,60.01,73,53,10.83,JP,1603022175
Saldanha,-33.01,17.94,71.6,43,95,10.29,ZA,1603022175
La Llanada,1.49,-77.58,47.53,100,98,1.63,CO,1603022175
Northam,51.03,-4.22,57.99,75,71,4.0,GB,1603022175
Chumikan,54.72,135.31,30.07,85,99,16.98,RU,1603022175
Kabare,-2.47,28.82,71.17,72,86,2.33,CD,1603022175
Zaysan,47.47,84.87,51.6,43,69,4.52,KZ,1603022175
Horqueta,-23.34,-57.06,79.81,54,91,4.9,PY,1603022176
Tallahassee,30.44,-84.28,62.6,82,20,5.82,US,1603022176
Morros,-9.45,-46.3,87.08,29,73,9.17,BR,1603022176
San Quintín,30.48,-115.95,68.29,79,4,8.19,MX,1603022176
Meulaboh,4.14,96.13,79.72,80,98,4.34,ID,1603022176
Prince George,53.92,-122.75,25.0,85,90,9.17,CA,1603022134
Río Tercero,-32.17,-64.11,84.0,52,0,12.46,AR,1603022176
Taitung City,22.76,121.14,75.2,88,75,3.36,TW,1603022176
Cidreira,-30.18,-50.21,69.31,70,47,12.12,BR,1603022176
İmamoğlu,37.27,35.66,89.6,43,23,4.7,TR,1603022176
Havelock,34.88,-76.9,60.01,81,20,8.05,US,1603022176
Caucaia,-3.74,-38.65,84.2,58,40,23.04,BR,1603022176
Chokurdakh,70.63,147.92,20.98,98,95,7.99,RU,1603022176
Tuxpan,19.55,-103.4,61.7,69,81,3.36,MX,1603022176
Pisco,-13.7,-76.22,62.6,82,90,8.05,PE,1603022176
Missoula,47.02,-113.8,37.4,74,90,16.11,US,1603022177
Anadyr,64.75,177.48,19.4,85,74,2.24,RU,1603022177
Provideniya,64.38,-173.3,35.11,88,99,4.14,RU,1603022177
Iqaluit,63.75,-68.51,32.0,98,90,13.87,CA,1603022177
Mahon,39.89,4.27,68.0,56,20,4.7,ES,1603022177
Nuuk,64.18,-51.72,39.2,93,75,8.05,GL,1603021914
Chiredzi,-21.05,31.67,97.63,18,7,8.43,ZW,1603022177
Taltal,-25.4,-70.48,60.15,65,51,1.61,CL,1603022177
Ust-Nera,64.57,143.2,9.18,86,90,5.28,RU,1603022177
Severo-Kuril'sk,50.68,156.12,45.64,81,93,11.72,RU,1603022177
Atchison,39.56,-95.12,43.0,76,83,19.08,US,1603022177
Adré,13.47,22.2,94.87,11,0,10.07,TD,1603022177
Massakory,13.0,15.73,102.07,10,25,9.37,TD,1603022177
Kawardha,22.02,81.25,82.17,69,75,1.23,IN,1603022177
Komsomolets,53.75,62.07,43.52,56,3,6.49,KZ,1603022178
Rome,43.21,-75.46,36.0,80,1,5.82,US,1603022044
Portland,45.52,-122.68,55.99,87,90,4.7,US,1603021993
Moree,-29.47,149.85,59.0,87,90,12.75,AU,1603022178
Yerbogachën,61.28,108.01,30.58,98,100,9.33,RU,1603022178
Salinópolis,-0.61,-47.36,83.17,70,47,11.14,BR,1603022178
Bonfim,3.08,-59.95,83.68,57,43,6.29,BR,1603022178
Yumen,40.28,97.2,44.01,46,0,6.67,CN,1603022178
Brae,60.4,-1.35,44.6,61,20,2.24,GB,1603022178
Villaviciosa,43.48,-5.44,66.99,63,47,5.44,ES,1603022178
Biltine,14.53,20.92,99.77,9,5,7.78,TD,1603022178
Córdoba,-31.41,-64.18,80.01,69,0,11.41,AR,1603022171
Shchors,51.82,31.95,42.24,73,100,13.49,UA,1603022178
Aloleng,16.13,119.78,78.44,88,98,11.1,PH,1603022178
Boguchany,58.38,97.45,44.51,85,99,11.07,RU,1603022178
Coquimbo,-29.95,-71.34,51.8,100,90,3.36,CL,1603022179
Aykhal,66.0,111.5,6.8,92,0,4.47,RU,1603022179
São João da Barra,-21.64,-41.05,75.2,69,40,9.17,BR,1603022179
Shingū,33.73,135.98,61.47,73,87,4.59,JP,1603022179
Hūn,29.13,15.95,85.53,34,93,4.14,LY,1603022179
Hasaki,35.73,140.83,57.2,87,20,6.93,JP,1603022179
Belmonte,-15.86,-38.88,75.2,73,75,5.82,BR,1603022179
Channel-Port aux Basques,47.57,-59.14,48.69,74,23,18.34,CA,1603022179
Ballarat,-37.57,143.85,50.0,79,46,4.45,AU,1603022179
Pirgos,35.12,25.72,84.99,53,39,8.01,GR,1603022179
Kavieng,-2.57,150.8,82.9,75,90,11.56,PG,1603022179
Kaminskiy,57.15,41.47,46.42,99,100,8.72,RU,1603022179
Juazeiro,-9.41,-40.5,77.0,61,20,13.87,BR,1603022179
Ilulissat,69.22,-51.1,35.6,80,92,3.36,GL,1603022179
Roebourne,-20.78,117.13,70.65,72,0,15.73,AU,1603022180
Ilhabela,-23.78,-45.36,73.09,65,80,7.2,BR,1603022180
Los Llanos de Aridane,28.66,-17.92,77.0,73,20,19.46,ES,1603022180
São Domingos,-13.4,-46.32,84.9,41,21,8.61,BR,1603022180
Palu,-0.89,119.87,78.22,78,99,0.98,ID,1603022180
Horsham,51.06,-0.33,55.99,87,20,1.12,GB,1603022180
Wukari,7.85,9.78,89.17,55,18,4.85,NG,1603022180
Talnakh,69.49,88.4,24.8,79,75,13.42,RU,1603022180
Ilmajoki,62.73,22.57,35.01,81,90,3.36,FI,1603022180
Kapit,2.02,112.93,76.44,92,98,1.68,MY,1603022180
Concepción,-36.83,-73.05,48.2,93,40,2.24,CL,1603022180
Port Hardy,50.7,-127.42,46.4,93,90,10.29,CA,1603022180
Dhupgāri,26.59,89.01,82.54,67,0,2.55,IN,1603022181
Ulaanbaatar,47.91,106.88,30.2,54,37,4.47,MN,1603022181
Port Hawkesbury,45.62,-61.35,51.01,70,1,8.05,CA,1603022181
Esmeraldas,-19.76,-44.31,64.4,77,40,11.41,BR,1603022159
Vieques,18.43,-65.83,78.8,83,40,8.88,PR,1603022181
Grand-Lahou,5.14,-5.02,82.22,74,92,6.69,CI,1603022181
Ust-Tsilma,65.44,52.15,33.17,95,93,1.25,RU,1603022181
Mbulu,-3.85,35.53,79.72,28,9,10.07,TZ,1603022181
Alta Floresta,-9.88,-56.09,89.28,45,72,3.91,BR,1603022181
Maragogi,-9.01,-35.22,80.01,68,21,10.8,BR,1603022181
Katsuura,35.13,140.3,62.6,67,20,9.17,JP,1603022181
Tolaga Bay,-38.37,178.3,51.55,71,15,3.58,NZ,1603022181
Meadow Lake,34.8,-106.54,50.0,21,1,4.7,US,1603022181
Matara,5.95,80.54,81.84,76,16,13.71,LK,1603022181
Bondoukou,8.03,-2.8,84.99,66,75,5.39,CI,1603022182
Mehamn,71.04,27.85,37.94,82,100,6.91,NO,1603022182
Bilibino,68.05,166.44,14.5,92,94,2.86,RU,1603022182
Lompoc,34.64,-120.46,55.4,81,1,4.85,US,1603022182
Labuhan,-6.88,112.21,79.7,74,100,7.81,ID,1603022182
Harnai,30.1,67.94,82.85,11,0,6.13,PK,1603022182
Acajutla,13.59,-89.83,68.0,100,81,1.01,SV,1603022183
Glenwood Springs,39.55,-107.32,44.6,47,1,13.87,US,1603022183
Mossamedes,-15.2,12.15,78.8,61,68,12.75,AO,1603022183
Lokosovo,61.13,74.82,29.52,94,100,15.12,RU,1603022183
Ushtobe,45.25,77.98,59.4,32,64,7.07,KZ,1603022183
Zhicheng,30.3,111.5,57.99,72,94,1.45,CN,1603022183
Itarema,-2.92,-39.92,85.75,50,50,17.13,BR,1603022183
Bone,51.97,12.14,54.0,71,77,5.01,DE,1603022183
Luwingu,-10.26,29.93,88.99,21,0,8.1,ZM,1603022183
Kudat,6.88,116.85,80.6,88,20,3.36,MY,1603022183
Guerrero Negro,27.98,-114.06,68.49,82,11,6.4,MX,1603022183
Palmer,42.16,-72.33,39.0,92,1,1.72,US,1603022184
Hong Kong,22.29,114.16,79.0,77,50,1.99,HK,1603022184
Torquay,50.46,-3.51,57.99,8,77,6.33,GB,1603022184
Jacmel,18.23,-72.53,77.0,83,20,8.05,HT,1603022184
Salalah,17.02,54.09,91.4,38,2,12.75,OM,1603022120
Bloomfield,40.81,-74.19,53.6,93,1,2.24,US,1603022185
Tevriz,57.51,72.4,33.26,88,96,9.01,RU,1603022185
Terney,45.05,136.61,43.65,69,0,6.64,RU,1603022185
Solnechnyy,50.72,136.63,29.3,77,47,8.79,RU,1603022185
Kruisfontein,-34.0,24.73,70.0,56,100,8.99,ZA,1603022185
Longyearbyen,78.22,15.64,26.6,79,20,6.93,SJ,1603022185
Fortuna,40.6,-124.16,46.4,100,90,4.7,US,1603022185
Mayumba,-3.43,10.66,80.29,80,99,7.2,GA,1603022185
Wajima,37.4,136.9,63.3,60,35,4.23,JP,1603022185
Comodoro Rivadavia,-45.87,-67.5,55.4,43,0,20.8,AR,1603022185
Quatre Cocos,-20.21,57.76,80.6,57,20,10.29,MU,1603022186
Freeport,40.66,-73.58,50.0,75,1,3.36,US,1603022186
Beloha,-25.17,45.05,81.27,45,0,17.76,MG,1603022186
Aksarka,66.56,67.8,27.7,95,75,15.95,RU,1603022186
Lacombe,52.47,-113.74,15.8,78,75,2.24,CA,1603022186
Asha,55.0,57.27,42.35,65,40,2.91,RU,1603022186
San Fernando del Valle de Catamarca,-28.47,-65.79,91.0,46,0,8.99,AR,1603022186
Ventsy,45.38,40.84,81.12,28,52,11.16,RU,1603022186
Taliparamba,12.05,75.35,84.2,79,40,5.82,IN,1603022186
North Bend,43.41,-124.22,50.0,100,75,8.05,US,1603022186
Port Moresby,-9.44,147.18,80.6,83,90,17.22,PG,1603022187
Bitung,1.45,125.18,77.0,88,40,2.24,ID,1603022187
Oksbøl,55.63,8.29,52.0,53,83,20.8,DK,1603022187
Tāybād,34.74,60.78,71.19,20,0,21.12,IR,1603022187
Olafsvik,64.89,-23.71,39.6,78,30,22.55,IS,1603022187
Tuatapere,-46.13,167.68,50.0,77,99,3.0,NZ,1603022187
Buraidah,26.33,43.98,89.6,17,0,2.24,SA,1603022187
Lahaina,20.88,-156.68,75.2,78,75,6.11,US,1603022187
Vila Velha,-20.33,-40.29,71.01,94,75,5.82,BR,1603022187
Mareeba,-17.0,145.43,73.4,78,11,3.36,AU,1603022187
Kaina,12.64,8.59,91.4,46,14,11.86,NG,1603022187
Nampula,-15.12,39.27,94.53,19,13,4.97,MZ,1603022114
Fare,-16.7,-151.02,79.18,81,23,9.46,PF,1603022188
Ribeira Grande,38.52,-28.7,62.6,59,20,10.29,PT,1603022188
Luanda,-8.84,13.23,82.4,69,75,8.05,AO,1603022115
Saucillo,28.02,-105.28,63.55,55,0,2.35,MX,1603022188
Trairi,-3.28,-39.27,86.02,48,18,14.29,BR,1603022188
Volot,57.93,30.7,40.3,71,92,9.73,RU,1603022188
Goundam,16.41,-3.67,102.38,10,20,19.51,ML,1603022188
Yining,29.04,114.56,56.71,92,100,1.63,CN,1603022188
Grenfell,-33.9,148.17,47.1,90,0,3.89,AU,1603022189
Gizo Government Station,-8.1,156.84,81.3,73,100,4.81,SB,1603022189
Grindavik,63.84,-22.43,44.6,93,75,14.99,IS,1603022189
Yanaul,56.27,54.93,40.62,69,96,14.36,RU,1603022189
Aksu,41.12,80.26,57.65,34,0,1.7,CN,1603022189
Margate,51.38,1.39,55.99,73,92,3.0,GB,1603022189
Erenhot,43.65,111.98,48.34,45,7,7.78,CN,1603022189
Robinsonville,31.47,-97.11,75.0,78,75,16.11,US,1603022189
Kununurra,-15.77,128.73,87.8,58,40,9.17,AU,1603022190
Inírida,3.87,-67.92,75.65,90,82,0.83,CO,1603022190
Kashgar,39.45,75.98,66.2,22,0,8.95,CN,1603022190
Manggar,-2.88,108.27,81.43,80,35,9.89,ID,1603022190
Kampene,-3.6,26.67,78.35,86,98,3.67,CD,1603022190
Adrar,20.5,-10.07,92.95,18,0,6.24,MR,1603022190
Pahrump,36.21,-115.98,53.01,24,0,0.81,US,1603022030
Moose Factory,51.26,-80.61,33.8,100,90,11.41,CA,1603022190
Parry Sound,45.35,-80.03,51.01,82,100,7.0,CA,1603022011
Ixtapa,20.7,-105.2,80.01,89,72,1.01,MX,1603022190
Baykit,61.67,96.37,37.9,78,100,14.27,RU,1603022191
Humaitá,-7.51,-63.02,82.54,73,97,1.68,BR,1603022191
Blackwater,-23.58,148.88,68.23,64,40,9.98,AU,1603022191
Yazykovo,55.22,56.14,41.22,67,61,12.3,RU,1603022191
General Roca,-39.03,-67.58,55.4,58,0,2.24,AR,1603022191
Sulphur,30.24,-93.38,64.99,100,1,5.82,US,1603022191
Corcoran,36.1,-119.56,57.99,93,90,1.99,US,1603022192
Tiksi,71.69,128.87,19.87,96,100,16.08,RU,1603022192
Pocatello,42.87,-112.45,52.0,50,90,12.75,US,1603022168
Murgab,37.5,61.97,80.6,15,0,4.7,TM,1603022192
Kingston,18.0,-76.79,80.6,83,75,10.29,JM,1603022192
Tilichiki,60.47,166.1,32.59,92,96,6.13,RU,1603022192
Dudinka,69.41,86.18,24.8,79,75,13.42,RU,1603022192
Broome,42.25,-75.83,39.2,60,1,6.93,US,1603022192
Tibú,8.64,-72.74,76.24,88,99,0.49,CO,1603022192
Altamira,-3.2,-52.21,81.46,71,67,5.59,BR,1603022103
Manassas,38.75,-77.48,41.0,100,1,2.08,US,1603022192
Port-Cartier,50.03,-66.87,39.99,77,5,3.36,CA,1603022192
Marawi,8.0,124.29,79.0,89,100,1.01,PH,1603022193
Maceió,-9.67,-35.74,82.4,61,75,13.87,BR,1603022193
Manta,-0.95,-80.73,73.4,83,40,9.17,EC,1603022193
Darwen,53.7,-2.46,53.01,85,88,1.01,GB,1603022193
Farafangana,-22.82,47.83,73.58,76,79,12.21,MG,1603022193
Wentzville,38.81,-90.85,55.0,68,94,6.13,US,1603022193
Ghanzi,-21.57,21.78,97.34,9,0,11.61,BW,1603022193
Warri,5.52,5.75,88.52,60,60,4.54,NG,1603022193
Asău,46.43,26.4,59.0,47,75,4.7,RO,1603022193
Yangshan,28.76,115.03,54.36,90,100,2.55,CN,1603022194
Belyy Yar,53.6,91.39,55.4,43,100,17.9,RU,1603022194
Awjilah,29.11,21.29,98.82,12,0,12.41,LY,1603022194
Laurel,39.1,-76.85,39.2,100,1,2.89,US,1603022194
Port Said,31.26,32.28,78.87,62,3,10.6,EG,1603022194
Avera,33.19,-82.53,51.8,81,90,6.93,US,1603022194
Soe,-9.86,124.28,68.54,90,66,4.16,ID,1603022194
Mingora,34.78,72.36,74.16,25,0,3.71,PK,1603022194
Pangnirtung,66.15,-65.71,34.84,78,100,5.39,CA,1603022194
Sembakung,3.82,117.25,76.48,96,97,2.46,ID,1603022194
Cam Ranh,11.92,109.16,82.4,88,75,2.42,VN,1603022194
Touros,-5.2,-35.46,80.6,69,75,11.41,BR,1603022194
San Buenaventura,27.08,-101.53,69.01,65,0,5.01,MX,1603022195
Bilma,18.69,12.92,100.17,8,0,2.57,NE,1603022195
Salamanca,40.83,-6.0,66.99,34,82,4.7,ES,1603022123
Muros,42.78,-9.06,64.0,83,29,8.99,ES,1603022195
Mosquera,4.71,-74.23,50.0,87,75,3.36,CO,1603022195
Dale,38.17,-86.99,55.4,58,90,6.93,US,1603022195
Contamana,-7.33,-75.02,75.87,83,16,1.45,PE,1603022195
Moroni,-11.7,43.26,80.31,71,36,9.75,KM,1603022195
Kwang Binh,17.48,106.6,74.26,88,100,0.87,VN,1603022195
Ostrovnoy,68.05,39.51,35.85,82,35,12.95,RU,1603022195
Lubango,-14.92,13.49,84.2,17,40,9.17,AO,1603022195
Mugur-Aksy,50.35,90.5,28.49,82,100,5.48,RU,1603022195
Bharatpur,27.22,77.48,91.6,20,0,4.34,IN,1603022195
Taoudenni,22.68,-3.98,94.75,14,0,5.7,ML,1603022195
Bandarbeyla,9.49,50.81,84.36,66,0,12.73,SO,1603022196
Ventspils,57.39,21.56,46.4,65,40,17.22,LV,1603022196
Casino,-28.87,153.05,66.99,93,94,4.7,AU,1603022146
Arlit,18.74,7.39,101.1,8,0,9.13,NE,1603022196
Ahipara,-35.17,173.17,55.87,92,55,5.53,NZ,1603022196
Talcahuano,-36.72,-73.12,48.2,93,40,2.24,CL,1603022196
Namikupa,-10.83,39.6,93.16,30,1,10.36,TZ,1603022196
Itaqui,-29.13,-56.55,76.05,63,0,7.96,BR,1603022196
Sainte-Maxime,43.3,6.63,66.2,55,0,6.93,FR,1603022196
Tocopilla,-22.09,-70.2,64.9,49,22,6.8,CL,1603022196
Gemena,3.25,19.77,90.77,49,63,1.36,CD,1603022196
Kiruna,67.86,20.23,28.4,79,90,20.8,SE,1603022196
Farsund,58.09,6.8,53.01,48,84,13.0,NO,1603022197
Alice Springs,-23.7,133.88,80.6,47,39,2.24,AU,1603022107
Aklavik,68.22,-135.01,8.6,84,20,5.82,CA,1603022197
Kintampo,8.06,-1.73,83.44,70,59,5.3,GH,1603022197
Korem,12.51,39.52,65.07,48,44,8.21,ET,1603022197
Marsh Harbour,26.54,-77.06,82.09,79,97,17.96,BS,1603022197
Colares,38.8,-9.45,70.0,52,20,9.17,PT,1603022197
Kisi,9.08,3.85,86.94,58,3,4.76,NG,1603022197
Austin,30.27,-97.74,73.4,83,90,3.36,US,1603021856
Vanimo,-2.67,141.3,80.62,79,99,4.09,PG,1603022197
Palauig,15.44,119.9,82.51,73,96,2.66,PH,1603022197
Xingcheng,40.62,120.72,55.83,42,0,2.3,CN,1603022197
Roseburg,43.22,-123.34,51.8,87,1,1.72,US,1603022198
Sibolga,1.74,98.78,79.9,74,100,1.77,ID,1603022198
Maracaçumé,-2.04,-45.96,85.17,63,87,5.88,BR,1603022198
Tootsi,58.58,24.79,45.0,98,99,7.96,EE,1603022198
Karratha,-20.74,116.85,70.41,76,0,14.14,AU,1603022160
Lima,-12.04,-77.03,62.6,82,90,3.36,PE,1603022151
Dumas,35.87,-101.97,50.0,74,1,20.8,US,1603022198
Guazacapán,14.07,-90.42,60.8,100,40,6.93,GT,1603022198
Phalaborwa,-23.94,31.14,93.2,32,0,5.82,ZA,1603022199
Nsanje,-16.92,35.26,103.15,12,0,4.52,MW,1603022199
Kenai,60.55,-151.26,33.8,86,90,10.29,US,1603022199
Nizhniy Kuranakh,58.84,125.49,13.48,92,68,3.78,RU,1603022199
Hualmay,-11.1,-77.61,62.51,83,74,5.26,PE,1603022199
Puerto Nariño,-3.77,-70.38,73.4,100,75,3.36,CO,1603022199
Morondava,-20.28,44.28,81.46,71,6,14.92,MG,1603022199
Boyolangu,-8.12,111.89,76.84,85,100,5.95,ID,1603022199
Aripuanã,-9.17,-60.63,78.13,82,99,1.16,BR,1603022199
Lodwar,3.12,35.6,91.4,34,49,12.17,KE,1603022199
Atar,20.52,-13.05,97.07,18,0,6.08,MR,1603022200
Kamsack,51.57,-101.9,23.0,79,90,12.75,CA,1603022200
Puerto Colombia,10.99,-74.95,75.2,100,20,2.24,CO,1603022200
Strakonice,49.26,13.9,48.99,81,41,3.0,CZ,1603022200
Verkhniy Baskunchak,48.23,46.72,73.38,45,0,16.26,RU,1603022200
Khartoum,15.55,32.53,100.4,11,20,5.82,SD,1603022023
Iralaya,15.0,-83.23,78.96,86,100,7.11,HN,1603022200
Faro,37.02,-7.93,68.0,52,75,14.99,PT,1603022200
Madang,-5.22,145.8,78.19,84,88,1.79,PG,1603022200
Acaraú,-2.89,-40.12,86.0,50,48,16.84,BR,1603022200
Buta,2.79,24.73,77.45,78,100,1.12,CD,1603022200
Sisimiut,66.94,-53.67,40.17,70,100,12.24,GL,1603022201
Qujing,25.48,103.78,54.46,85,100,4.27,CN,1603022172
Polson,47.69,-114.16,30.99,48,100,4.0,US,1603022201
Krasnobrodskiy,54.16,86.45,34.5,86,70,10.8,RU,1603022201
Naze,28.37,129.48,75.2,94,75,20.8,JP,1603022201
Husavik,66.04,-17.34,44.6,70,90,2.24,IS,1603022201
